{"type": "FeatureCollection", "version": "draft", "features": [{"type": "Feature", "geometry": {"type": "Point", "coordinates": [2.372095, 48.88393]}, "properties": {"label": "16 Quai de la Loire 75019 Paris", "score": 0.9794081818181817, "housenumber": "16", "id": "75119_5732_00016", "name": "16 Quai de la Loire", "postcode": "75019", "citycode": "75119", "x": 653952.91, "y": 6865062.37, "city": "Paris", "district": "Paris 19e Arrondissement", "context": "75, Paris, \u00cele-de-France", "type": "housenumber", "importance": 0.77349, "street": "Quai de la Loire"}}, {"type": "Feature", "geometry": {"type": "Point", "coordinates": [2.371647, 48.885154]}, "properties": {"label": "16 Quai de la Seine 75019 Paris", "score": 0.6551901298701299, "housenumber": "16", "id": "75119_8912_00016", "name": "16 Quai de la Seine", "postcode": "75019", "citycode": "75119", "x": 653921.14, "y": 6865198.73, "city": "Paris", "district": "Paris 19e Arrondissement", "context": "75, Paris, \u00cele-de-France", "type": "housenumber", "importance": 0.77852, "street": "Quai de la Seine"}}, {"type": "Feature", "geometry": {"type": "Point", "coordinates": [2.381791, 48.889148]}, "properties": {"label": "16 Quai de la Marne 75019 Paris", "score": 0.6513064935064935, "housenumber": "16", "id": "75119_6109_00016", "name": "16 Quai de la Marne", "postcode": "75019", "citycode": "75119", "x": 654668.49, "y": 6865636.97, "city": "Paris", "district": "Paris 19e Arrondissement", "context": "75, Paris, \u00cele-de-France", "type": "housenumber", "importance": 0.7358, "street": "Quai de la Marne"}}, {"type": "Feature", "geometry": {"type": "Point", "coordinates": [2.383084, 48.898153]}, "properties": {"label": "16 Quai de la Charente 75019 Paris", "score": 0.6382003931203931, "housenumber": "16", "id": "75119_1792_00016", "name": "16 Quai de la Charente", "postcode": "75019", "citycode": "75119", "x": 654771.12, "y": 6866637.54, "city": "Paris", "district": "Paris 19e Arrondissement", "context": "75, Paris, \u00cele-de-France", "type": "housenumber", "importance": 0.69588, "street": "Quai de la Charente"}}, {"type": "Feature", "geometry": {"type": "Point", "coordinates": [2.383659, 48.89552]}, "properties": {"label": "Quai de la Gironde 75019 Paris", "score": 0.5879972727272726, "id": "75119_4197", "name": "Quai de la Gironde", "postcode": "75019", "citycode": "75119", "x": 654810.99, "y": 6866344.44, "city": "Paris", "district": "Paris 19e Arrondissement", "context": "75, Paris, \u00cele-de-France", "type": "street", "importance": 0.71797}}], "attribution": "BAN", "licence": "ETALAB-2.0", "query": "16 quai de la Loire, 75019 Paris", "filters": {"postcode": "75019"}, "limit": 5}
